id	name	name_si	name_ta	area_sqkm	center_lat	center_lon
LK-1	Western	බස්නාහිර පළාත	மேல் மாகாணம்	3751.55742292	6.82758732	80.03300355
LK-2	Central	මධ්‍යම පළාත	மத்திய மாகாணம்	5731.24869051	7.38167488	80.72310875
LK-3	Southern	දකුණු පළාත	தென் மாகாணம்	5544.92273301	6.24940775	80.46091981
LK-4	Northern	උතුරු පළාත	வட மாகாணம்	9037.41551826	9.18025591	80.48138481
LK-5	Eastern	නැගෙනහිර පළාත	கிழக்கு மாகாணம்	9647.26506978	7.74955548	81.41236563
LK-6	North Western	වයඹ පළාත	வட மேல் மாகாணம்	8065.64498669	7.91254086	80.10712177
LK-7	North Central	උතුරු මැද පළාත	வட மத்திய மாகாணம்	10688.00362832	8.28139199	80.48495204
LK-8	Uva	ඌව පළාත	ஊவா மாகாணம்	8629.94481929	6.95387003	81.23521898
LK-9	Sabaragamuwa	සබරගමුව පළාත	சபரகமுவ மாகாணம்	4944.80784275	6.81269549	80.33507745
